{"type": "FeatureCollection", "features": [{"properties": {"name": "AIK IT DIGITAL s.r.o.", "url": "http://www.aikit.cz/", "program": "CzechAccelerator", "address": "Kou\u0159imsk\u00e1 2350/3, Vinohrady, 13000 Praha 3", "place_of_business": "Dukelsk\u00e1 198/19, Mlad\u00e1 Boleslav, 293 01"}, "geometry": {"type": "Point", "coordinates": [14.468408742558319, 50.07752308426037]}, "type": "Feature"}, {"properties": {"name": "ApuTime s.r.o.", "url": "www.aputime.com", "program": "CzechDemo", "address": "Sokolsk\u00e1 t\u0159\u00edda 1263/24, Moravsk\u00e1 Ostrava, 70200 Ostrava", "place_of_business": "x"}, "geometry": {"type": "Point", "coordinates": [18.29237769345884, 49.83928164453932]}, "type": "Feature"}, {"properties": {"name": "AquaQube s.r.o.", "url": "www.AquaQube.cz", "program": "CzechDemo", "address": "Chl\u00e1dkova 2016/24c, \u017dabov\u0159esky, 61600 Brno", "place_of_business": "x"}, "geometry": {"type": "Point", "coordinates": [16.586905844681212, 49.21256260498712]}, "type": "Feature"}, {"properties": {"name": "Battswap CZ s.r.o.", "url": "www.battswap.com", "program": "CzechDemo", "address": "Sokolsk\u00e1 30, \u0160umn\u00e1, 43601 Litv\u00ednov", "place_of_business": "Jungmannova 36, Praha 1, 110 00"}, "geometry": {"type": "Point", "coordinates": [13.593746574327085, 50.606333951909065]}, "type": "Feature"}, {"properties": {"name": "Brightify s.r.o.", "url": "www.brightify.org, www.reactant.tech", "program": "CzechDemo", "address": "Rybn\u00e1 716/24, Star\u00e9 M\u011bsto, 11000 Praha 1", "place_of_business": "Purky\u0148ova 648/125, 612 00 Brno"}, "geometry": {"type": "Point", "coordinates": [14.426041907615573, 50.09033938925729]}, "type": "Feature"}, {"properties": {"name": "Dataddo s.r.o.", "url": "www.dataddo.com", "program": "CzechDemo", "address": "V. Dobi\u00e1\u0161e 549, Hol\u00ednsk\u00e9 P\u0159edm\u011bst\u00ed, 50601 Ji\u010d\u00edn", "place_of_business": "x"}, "geometry": {"type": "Point", "coordinates": [15.351995510795971, 50.44346713617337]}, "type": "Feature"}, {"properties": {"name": "Dativery s.r.o.", "url": "www.dativery.com", "program": "CzechDemo", "address": "Ole\u0161n\u00e1 51, 33824 N\u011bm\u010dovice", "place_of_business": "N\u00e1m\u011bst\u00ed Republiky 1, Plze\u0148, 301 00"}, "geometry": {"type": "Point", "coordinates": [13.545866621797732, 49.875936748888876]}, "type": "Feature"}, {"properties": {"name": "Decissio s.r.o.", "url": "http://decissio.com", "program": "CzechDemo", "address": "Ji\u010d\u00ednsk\u00e1 226/17, \u017di\u017ekov, 13000 Praha 3", "place_of_business": "Nov\u00e9 sady 988/2, 602 00 Brno"}, "geometry": {"type": "Point", "coordinates": [14.460451970496228, 50.07865211151879]}, "type": "Feature"}, {"properties": {"name": "Elite Timber Construction s.r.o.", "url": "http://www.mirdesign.cz/", "program": "CzechStarter", "address": "Sl\u00e1dkova 372/8, Moravsk\u00e1 Ostrava, 70200 Ostrava", "place_of_business": "x"}, "geometry": {"type": "Point", "coordinates": [18.274912995892546, 49.83816065929009]}, "type": "Feature"}, {"properties": {"name": "ENGETO s.r.o.", "url": "https://engeto.cz/", "program": "CzechStarter", "address": "Cyrilsk\u00e1 508/7, Trnit\u00e1, 60200 Brno", "place_of_business": "x"}, "geometry": {"type": "Point", "coordinates": [16.62064156152342, 49.19030443600415]}, "type": "Feature"}, {"properties": {"name": "EV Expert s.r.o.", "url": "www.evexpert.cz", "program": "CzechStarter", "address": "Polsk\u00e1 181/70, 77900 Olomouc", "place_of_business": "x"}, "geometry": {"type": "Point", "coordinates": [17.242760159171493, 49.58504454099849]}, "type": "Feature"}, {"properties": {"name": "FROU FROU, s.r.o.", "url": "http://60seconds.cz/videodrome; www.videodrome.cz", "program": "CzechStarter, CzechDemo", "address": "Kounicova 290/51, Veve\u0159\u00ed, 60200 Brno", "place_of_business": "x"}, "geometry": {"type": "Point", "coordinates": [16.59980623997317, 49.203232240425166]}, "type": "Feature"}, {"properties": {"name": "Incomaker s.r.o.", "url": "www.incomaker.com", "program": "CzechDemo", "address": "Ha\u0161kova 1582, 25263 Roztoky", "place_of_business": "x"}, "geometry": {"type": "Point", "coordinates": [14.391253286931045, 50.167202777601965]}, "type": "Feature"}, {"properties": {"name": "Integromat s.r.o.", "url": "www.integromat.com", "program": "CzechAccelerator", "address": "Nov\u00e1kov\u00fdch 1954/20a, Libe\u0148, 18000 Praha 8", "place_of_business": "Kate\u0159insk\u00e1 87/9, 779 00, Olomouc"}, "geometry": {"type": "Point", "coordinates": [14.476732648449673, 50.103419984991696]}, "type": "Feature"}, {"properties": {"name": "Keylog net s.r.o.", "url": "http://www.keylog.net/", "program": "CzechStarter", "address": "9. kv\u011btna 211, 53372 Moravany", "place_of_business": "x"}, "geometry": {"type": "Point", "coordinates": [15.95099701351881, 50.00004823380561]}, "type": "Feature"}, {"properties": {"name": "Kooperace.cz s.r.o.", "url": "http://www.kooperace.cz/", "program": "CzechStarter", "address": "Vy\u0161ehradsk\u00e1 1349/2, Nov\u00e9 M\u011bsto, 12800 Praha 2", "place_of_business": "Ji\u017en\u00ed 870/2, 500 03 Hradec Kr\u00e1lov\u00e9, \u010cesk\u00e1 Republika"}, "geometry": {"type": "Point", "coordinates": [14.417339289079704, 50.068118743510865]}, "type": "Feature"}, {"properties": {"name": "Langino.s.r.o.", "url": "www.langino.com", "program": "CzechStarter", "address": "Medl\u00e1nky \u010d.ev. 242, 62100 Brno", "place_of_business": "x"}, "geometry": {"type": "Point", "coordinates": [16.56140749921048, 49.24734849572247]}, "type": "Feature"}, {"properties": {"name": "Largos Media", "url": "www.viagoood.com", "program": "CzechDemo, CzechAccelerator", "address": "Stra\u0161nick\u00e1 3165/1b, Z\u00e1b\u011bhlice, 10200 Praha 10", "place_of_business": "Ztracen\u00e1 268/34, 779 00, Olomouc"}, "geometry": {"type": "Point", "coordinates": [14.512732071758236, 50.0581617334938]}, "type": "Feature"}, {"properties": {"name": "Legito s.r.o.", "url": "www.legito.com", "program": "CzechDemo, CzechAccelerator", "address": "Pod Lipami 19, Zem\u011bchy, 27801 Kralupy nad Vltavou", "place_of_business": "x"}, "geometry": {"type": "Point", "coordinates": [14.267288143291465, 50.23020878715701]}, "type": "Feature"}, {"properties": {"name": "Mentem-brain training, z.s.", "url": "www.mentem.cz", "program": "CzechDemo", "address": "\u0160im\u00e1\u010dkova 674/137, L\u00ed\u0161e\u0148, 62800 Brno", "place_of_business": "x"}, "geometry": {"type": "Point", "coordinates": [16.699002316237365, 49.21268609354431]}, "type": "Feature"}, {"properties": {"name": "Nadkov s.r.o.", "url": "www.nadkov.cz", "program": "CzechStarter", "address": "\u010d.p. 148, 54921 \u010cesk\u00e1 \u010cermn\u00e1", "place_of_business": "x"}, "geometry": {"type": "Point", "coordinates": [16.22702424406796, 50.40286001032489]}, "type": "Feature"}, {"properties": {"name": "NANITS UNIVERSE LTD.", "url": "www.nanitschronicles.com", "program": "CzechDemo, CzechAccelerator", "address": "Nuderova 598, Klatovy II, 33901 Klatovy", "place_of_business": "X"}, "geometry": {"type": "Point", "coordinates": [13.303524196246121, 49.39930690642837]}, "type": "Feature"}, {"properties": {"name": "Naturaw s.r.o.", "url": "http://www.naturaw.cz/", "program": "CzechStarter", "address": "Vlkova 614/4, \u017di\u017ekov, 13000 Praha 3", "place_of_business": "Keblov, Sedlice 15, 257 65 \u010cechtice"}, "geometry": {"type": "Point", "coordinates": [14.444509406571928, 50.08289531212128]}, "type": "Feature"}, {"properties": {"name": "New Era Materials s.r.o.", "url": "http://as-set-cz.webnode.cz/", "program": "CzechStarter", "address": "Hn\u011bvkovsk\u00e9ho 30/65, Kom\u00e1rov, 61700 Brno", "place_of_business": "x"}, "geometry": {"type": "Point", "coordinates": [16.627287223214758, 49.16905536364745]}, "type": "Feature"}, {"properties": {"name": "Nexidexum s.r.o.", "url": "http://lingebra.com/", "program": "CzechStarter", "address": "Hlubok\u00e1 82/3, \u0160t\u00fd\u0159ice, 63900 Brno", "place_of_business": "x"}, "geometry": {"type": "Point", "coordinates": [16.59556901128914, 49.175223072437845]}, "type": "Feature"}, {"properties": {"name": "Oscar Senior s.r.o.", "url": "www.oscarsenior.com", "program": "CzechDemo", "address": "\u0160tef\u00e1nikova 696/7, 79001 Jesen\u00edk", "place_of_business": "x"}, "geometry": {"type": "Point", "coordinates": [17.208169537743284, 50.23004075939842]}, "type": "Feature"}, {"properties": {"name": "Paatek s.r.o.", "url": "http://www.parkapp.cz/", "program": "CzechDemo", "address": "Rozkvetl\u00e1 179, 36001 Jeni\u0161ov", "place_of_business": "x"}, "geometry": {"type": "Point", "coordinates": [12.803817502663899, 50.22530736905899]}, "type": "Feature"}, {"properties": {"name": "PIXBUF s.r.o.", "url": "www.pixbuf.com", "program": "CzechDemo", "address": "\u010d.ev. 193, 40747 Doubice", "place_of_business": "x"}, "geometry": {"type": "Point", "coordinates": [14.455591065434207, 50.8872074441873]}, "type": "Feature"}, {"properties": {"name": "PlasmaAgro s.r.o.", "url": "www.plasma-agro.cz", "program": "CzechStarter", "address": "Jungmannova 695/42, \u010cesk\u00e9 Bud\u011bjovice 7, 37001 \u010cesk\u00e9 Bud\u011bjovice", "place_of_business": "x"}, "geometry": {"type": "Point", "coordinates": [14.471909839437256, 48.956448811434946]}, "type": "Feature"}, {"properties": {"name": "Retailys (Social 2.0) s.r.o.", "url": "www.retailys.com", "program": "CzechAccelerator, CzechMatch", "address": "Husovo n\u00e1m\u011bst\u00ed 50, Klatovy III, 33901 Klatovy", "place_of_business": "x"}, "geometry": {"type": "Point", "coordinates": [13.28728071704446, 49.39790690904475]}, "type": "Feature"}, {"properties": {"name": "Right Rider s.r.o.", "url": "www.navirider.com", "program": "CzechStarter, CzechDemo", "address": "Listopadov\u00e1 120, Doln\u00ed Po\u010dernice, 19012 Praha 9", "place_of_business": "K Pivovaru 45, Trmice, \u00dast\u00ed nad Labem, 400 04"}, "geometry": {"type": "Point", "coordinates": [14.571795023729392, 50.08604053621614]}, "type": "Feature"}, {"properties": {"name": "Rooty s.r.o.", "url": "https://rootyrug.cz/", "program": "CzechStarter", "address": "J. Hloucha 323/11, \u010cesk\u00e9 Bud\u011bjovice 3, 37010 \u010cesk\u00e9 Bud\u011bjovice", "place_of_business": "x"}, "geometry": {"type": "Point", "coordinates": [14.475185742724548, 49.001935269392206]}, "type": "Feature"}, {"properties": {"name": "Sentry Company s.r.o.", "url": "www.sentrycompany.cz", "program": "CzechDemo", "address": "Turistick\u00e1 4462, Kokon\u00edn, 46801 Jablonec nad Nisou", "place_of_business": "Horn\u00ed n\u00e1m\u011bst\u00ed 1484/8, Jablonec nad Nisou, 466 01"}, "geometry": {"type": "Point", "coordinates": [15.186845710253781, 50.70972141648404]}, "type": "Feature"}, {"properties": {"name": "Simple Dent s.r.o.", "url": "www.simpledent.cz, http://app.simpledent.cz", "program": "CzechDemo", "address": "Pod Harfou 938/48, Vyso\u010dany, 19000 Praha 9", "place_of_business": "Var\u0161avsk\u00e1 2730/7, 390 05 T\u00e1bor"}, "geometry": {"type": "Point", "coordinates": [14.510678000773456, 50.103634806099514]}, "type": "Feature"}, {"properties": {"name": "Six Guys Labs s.r.o.", "url": "www.actijoy.com", "program": "CzechDemo", "address": "Wenzigova 260/3, V\u00fdchodn\u00ed P\u0159edm\u011bst\u00ed, 30100 Plze\u0148", "place_of_business": "x"}, "geometry": {"type": "Point", "coordinates": [13.38932845245103, 49.746287265916074]}, "type": "Feature"}, {"properties": {"name": "Skychatters s.r.o.", "url": "www.skychatters.com", "program": "CzechDemo", "address": "Cesti\u010dka 574/10, Kl\u00ed\u0161e, 40001 \u00dast\u00ed nad Labem", "place_of_business": "X"}, "geometry": {"type": "Point", "coordinates": [14.01136490130611, 50.66789168377184]}, "type": "Feature"}, {"properties": {"name": "StatusDroid s.r.o.", "url": "https://www.statusdroid.com", "program": "CzechStarter, CzechDemo", "address": "Mladotick\u00e1 282/13, Ruzyn\u011b, 16100 Praha 6", "place_of_business": "Inova\u010dn\u00ed 122, 252 41 Zlatn\u00edky-Hodkovice"}, "geometry": {"type": "Point", "coordinates": [14.324125515164015, 50.086504110502595]}, "type": "Feature"}, {"properties": {"name": "SuperKod\u00e9\u0159i s.r.o.", "url": "www.superkoderi.cz", "program": "CzechStarter", "address": "Hn\u011bvkovsk\u00e9ho 30/65, Kom\u00e1rov, 61700 Brno", "place_of_business": "x"}, "geometry": {"type": "Point", "coordinates": [16.627287223214758, 49.16905536364745]}, "type": "Feature"}, {"properties": {"name": "ThreatMark s.r.o.", "url": "www.threatmark.com", "program": "CzechStarter, CzechDemo", "address": "Pra\u017e\u00e1kova 213/10, Horn\u00ed Her\u0161pice, 61900 Brno", "place_of_business": "x"}, "geometry": {"type": "Point", "coordinates": [16.60490167896799, 49.162596941551655]}, "type": "Feature"}, {"properties": {"name": "Touch Art, s.r.o.", "url": "www.touchart.eu/cs/, https://eventee.co", "program": "CzechAccelerator", "address": "Kube\u0161ova 2623/2, Kr\u00e1lovo Pole, 61200 Brno", "place_of_business": "Botanick\u00e1 68a, Brno 602 00"}, "geometry": {"type": "Point", "coordinates": [16.59030673861621, 49.229540598325954]}, "type": "Feature"}, {"properties": {"name": "WAPS Technologies s.r.o.", "url": "www.wapstechnologies.com", "program": "CzechDemo", "address": "Studentsk\u00e1 6202/17, Poruba, 70800 Ostrava", "place_of_business": "x"}, "geometry": {"type": "Point", "coordinates": [18.15999295436979, 49.833507232928504]}, "type": "Feature"}, {"properties": {"name": "Webscope s.r.o.", "url": "www.webscope.io; www.goodevent.io", "program": "CzechStarter, CzechDemo", "address": "Cyrilsk\u00e1 508/7, Trnit\u00e1, 60200 Brno", "place_of_business": "x"}, "geometry": {"type": "Point", "coordinates": [16.62064156152342, 49.19030443600415]}, "type": "Feature"}, {"properties": {"name": "Webtortilla a.s.", "url": "www.webtortilla.cz", "program": "CzechStarter", "address": "K\u0159enov\u00e1 409/52, Trnit\u00e1, 60200 Brno", "place_of_business": "x"}, "geometry": {"type": "Point", "coordinates": [16.62188757964604, 49.19092619745209]}, "type": "Feature"}, {"properties": {"name": "XEVOS Group s.r.o.", "url": "www.xevos.eu, www.xevos.cloud", "program": "CzechDemo", "address": "Koda\u0148sk\u00e1 1441/46, Vr\u0161ovice, 10100 Praha 10", "place_of_business": "Sokolsk\u00e1 t\u0159\u00edda 1263/24, 702 00 Moravsk\u00e1 Ostrava"}, "geometry": {"type": "Point", "coordinates": [14.463357458538217, 50.06958515208261]}, "type": "Feature"}, {"properties": {"name": "XLAB s.r.o.", "url": "www.xlab.cz", "program": "CzechDemo", "address": "Bubensk\u00e1 1477/1, Hole\u0161ovice, 17000 Praha 7", "place_of_business": "Malovi\u010dky 41, Netolice, 38411"}, "geometry": {"type": "Point", "coordinates": [14.436876754029177, 50.098722629292936]}, "type": "Feature"}, {"properties": {"name": "XTND s.r.o.", "url": "www.getxtnd.com", "program": "CzechDemo", "address": "Sokolsk\u00e1 t\u0159\u00edda 1263/24, Moravsk\u00e1 Ostrava, 70200 Ostrava", "place_of_business": null}, "geometry": {"type": "Point", "coordinates": [18.29237769345884, 49.83928164453932]}, "type": "Feature"}, {"properties": {"name": "AUTOLIFT PRODUCTION s.r.o.", "url": "www.autoliftproduction.com ", "program": "CzechAccelerator", "address": "P\u0159\u00edkop 838/6, Z\u00e1brdovice, 60200 Brno", "place_of_business": "K Rak\u016fvk\u00e1m, 594 01 Velk\u00e9 Mezi\u0159\u00ed\u010d\u00ed"}, "geometry": {"type": "Point", "coordinates": [16.61380228898612, 49.19975326893672]}, "type": "Feature"}, {"properties": {"name": "Persoo s.r.o.", "url": "www.persoo.cz", "program": "CzechAccelerator", "address": "Karolinsk\u00e1 661/4, Karl\u00edn, 18600 Praha 8", "place_of_business": "P\u00e1lenick\u00e1 1984/4, 32300 Plze\u0148 1"}, "geometry": {"type": "Point", "coordinates": [14.446267447135451, 50.09469591868446]}, "type": "Feature"}, {"properties": {"name": "EVL Tool s.r.o.", "url": "www.evltool.com ", "program": "CzechAccelerator", "address": "Vltavsk\u00e1 6, 25266 Lib\u010dice nad Vltavou", "place_of_business": "X"}, "geometry": {"type": "Point", "coordinates": [14.361493671140838, 50.20077257544768]}, "type": "Feature"}, {"properties": {"name": "Netcope Technologies a.s.", "url": "www.netcope.com", "program": "CzechAccelerator", "address": "Sochorova 3232/34, \u017dabov\u0159esky, 61600 Brno", "place_of_business": "X"}, "geometry": {"type": "Point", "coordinates": [16.566024230047137, 49.212543060122194]}, "type": "Feature"}, {"properties": {"name": "ONEPROVE", "url": "www.oneprove.com", "program": "CzechMatch", "address": "N\u00e1dra\u017en\u00ed 344/23, Sm\u00edchov, 15000 Praha 5", "place_of_business": "Brn\u011bnsk\u00e1 1257/3, 664 34, Ku\u0159im"}, "geometry": {"type": "Point", "coordinates": [14.404320712980805, 50.07098963580679]}, "type": "Feature"}, {"properties": {"name": "CheckTerra", "url": "www.checkgis.com, www.checkphoto.eu", "program": "CzechMatch", "address": "Tyr\u0161ovo n\u00e1m\u011bst\u00ed 162, 26724 Hostomice", "place_of_business": "x"}, "geometry": {"type": "Point", "coordinates": [14.046008914253536, 49.824579161688945]}, "type": "Feature"}, {"properties": {"name": "FUNTASY SPORT SE", "url": "www.funtasysport.com", "program": "CzechMatch", "address": "Revolu\u010dn\u00ed 1082/8, Nov\u00e9 M\u011bsto, 11000 Praha 1", "place_of_business": "Boleslavsk\u00e1 31/4, Brand\u00fds nad Labem/Star\u00e1 Boleslav, 250 01"}, "geometry": {"type": "Point", "coordinates": [14.428178387611593, 50.09022842595847]}, "type": "Feature"}, {"properties": {"name": "Modern Entrepreneur s.r.o.", "url": "https://www.getnecktie.com/", "program": "CzechMatch", "address": "Pohrani\u010dn\u00ed 504/27, V\u00edtkovice, 70300 Ostrava", "place_of_business": "x"}, "geometry": {"type": "Point", "coordinates": [18.260758257077818, 49.81622019555892]}, "type": "Feature"}, {"properties": {"name": "Hybrid Company", "url": "www.mihybrid.com", "program": "Czechmatch", "address": "K\u0159i\u017e\u00edkova 53/52, Karl\u00edn, 18600 Praha 8", "place_of_business": "U Panel\u00e1rny 136, 273 43, Bu\u0161t\u011bhrad"}, "geometry": {"type": "Point", "coordinates": [14.453963925472824, 50.093056480611274]}, "type": "Feature"}]}